ID,23区,顧客住所,経度,緯度,顧客区分,顧客名,年収
0,港区,東京都港区愛宕一丁目,139.7489,35.66423,小規模事業所,芳沢 遥,883.4253182
1,文京区,東京都文京区弥生二丁目,139.76445,35.71561,消費者,薗田 葵,305.645768
2,文京区,東京都文京区弥生一丁目,139.76062,35.71736,大企業,加山 禎子,337.6371365
3,文京区,東京都文京区目白台二丁目,139.72202,35.71709,大企業,菅谷 正,693.9545457
4,文京区,東京都文京区目白台三丁目,139.72561,35.71708,消費者,高藤 梅子,800.4018337
5,文京区,東京都文京区目白台一丁目,139.72087,35.71508,大企業,長倉 一樹,810.9321437
6,文京区,東京都文京区本駒込六丁目,139.74567,35.73184,大企業,喜多川 麗華,553.5261621
7,文京区,東京都文京区本駒込二丁目,139.74915,35.72902,大企業,椿 紅子,1184.331421
8,文京区,東京都文京区本駒込四丁目,139.75608,35.732,大企業,成塚 直樹,1298.68564
9,文京区,東京都文京区本駒込三丁目,139.75441,35.72858,消費者,住岡 義雄,699.6080968
10,文京区,東京都文京区本駒込五丁目,139.75218,35.73272,消費者,餌取 直美,466.2904609
11,文京区,東京都文京区本駒込一丁目,139.75158,35.72619,大企業,本原 紅子,569.9940951
12,文京区,東京都文京区本郷六丁目,139.75803,35.71275,小規模事業所,高良 結衣,206.8961216
13,文京区,東京都文京区本郷二丁目,139.75986,35.70444,大企業,戸村 夏希,705.3468103
14,文京区,東京都文京区本郷七丁目,139.76299,35.71208,消費者,箕輪 萌,374.6699373
15,文京区,東京都文京区本郷四丁目,139.75632,35.70873,消費者,平川 翼,820.0367133
16,文京区,東京都文京区本郷三丁目,139.76286,35.70582,大企業,亘 朋美,848.7264983
17,文京区,東京都文京区本郷五丁目,139.75801,35.71092,消費者,堀篭 誠,665.5780691
18,文京区,東京都文京区本郷一丁目,139.75643,35.70513,小規模事業所,鶴原 萌,1334.502214
19,文京区,東京都文京区白山二丁目,139.74915,35.71701,消費者,沢目 直樹,1439.578373
20,文京区,東京都文京区白山四丁目,139.7464,35.72175,消費者,池尾 海斗,947.1947387
21,文京区,東京都文京区白山三丁目,139.74445,35.72012,消費者,友永 静香,833.5823252
22,文京区,東京都文京区白山五丁目,139.74869,35.72439,消費者,東 四郎,754.4189912
23,文京区,東京都文京区白山一丁目,139.7529,35.71878,消費者,上久保 由美,444.6699559
24,文京区,東京都文京区湯島二丁目,139.7659,35.70537,大企業,萩原 優月,380.5786371
25,文京区,東京都文京区湯島四丁目,139.76537,35.7092,消費者,岩尾 智子,539.9106357
26,文京区,東京都文京区湯島三丁目,139.76863,35.70538,大企業,榑林 丈夫,302.4611465
27,文京区,東京都文京区湯島一丁目,139.76401,35.70154,消費者,川満 緑,576.5869057
28,文京区,東京都文京区大塚六丁目,139.726,35.7253,大企業,戸ケ崎 小百合,936.0092486
29,文京区,東京都文京区大塚二丁目,139.73117,35.71925,大企業,駒田 翔太,1083.966641
30,文京区,東京都文京区大塚四丁目,139.73458,35.72363,消費者,蛯原 学,616.0641372
31,文京区,東京都文京区大塚三丁目,139.73646,35.7207,消費者,谷奥 大地,401.363073
32,文京区,東京都文京区大塚五丁目,139.72813,35.72253,小規模事業所,新道 萌,856.3291068
33,文京区,東京都文京区大塚一丁目,139.73319,35.71664,消費者,榊原 太陽,328.0717626
34,文京区,東京都文京区千駄木二丁目,139.76209,35.723,消費者,石堂 雄大,354.0062588
35,文京区,東京都文京区千駄木四丁目,139.7604,35.73109,消費者,三塚 真一,887.0151978
36,文京区,東京都文京区千駄木三丁目,139.76217,35.72737,消費者,金城 慶子,1025.441215
37,文京区,東京都文京区千駄木五丁目,139.75864,35.72723,大企業,須藤 夏希,1248.249882
38,文京区,東京都文京区千駄木一丁目,139.75876,35.72375,小規模事業所,円城寺 香,331.5520004
39,文京区,東京都文京区千石二丁目,139.74036,35.72375,消費者,神本 翔,690.6201353
40,文京区,東京都文京区千石四丁目,139.74088,35.7284,消費者,二井 桜,647.6379521
41,文京区,東京都文京区千石三丁目,139.7387,35.72604,大企業,実藤 和也,730.6006774
42,文京区,東京都文京区千石一丁目,139.74368,35.72597,大企業,夏井 和也,491.3835741
43,文京区,東京都文京区西片二丁目,139.75575,35.71586,大企業,臼井 大樹,263.031786
44,文京区,東京都文京区西片一丁目,139.75466,35.71308,大企業,田巻 凛,737.1913875
45,文京区,東京都文京区水道二丁目,139.73767,35.70979,大企業,金尾 四郎,831.3594326
46,文京区,東京都文京区水道一丁目,139.74208,35.70926,小規模事業所,沼本 静香,1495.76279
47,文京区,東京都文京区小日向二丁目,139.73366,35.7131,消費者,滝元 葵,639.9428776
48,文京区,東京都文京区小日向四丁目,139.7384,35.7158,大企業,関森 海斗,838.0906941
49,文京区,東京都文京区小日向三丁目,139.73495,35.71556,消費者,橘内 夏希,674.4519372
50,文京区,東京都文京区小日向一丁目,139.73827,35.71245,消費者,姉川 彩乃,830.1579488
51,文京区,東京都文京区小石川二丁目,139.74986,35.71032,消費者,山中 義雄,1027.938514
52,文京区,東京都文京区小石川四丁目,139.74334,35.71539,大企業,藤井 翼,431.022437
53,文京区,東京都文京区小石川三丁目,139.7469,35.71314,大企業,内河 学,1275.274153
54,文京区,東京都文京区小石川五丁目,139.74024,35.71831,大企業,戸田 和美,844.338181
55,文京区,東京都文京区小石川一丁目,139.75196,35.71219,消費者,岩佐 太陽,198.4043545
56,文京区,東京都文京区春日二丁目,139.74336,35.7112,小規模事業所,辻上 美優,403.9138507
57,文京区,東京都文京区春日一丁目,139.74855,35.70795,消費者,外薗 瞳,956.664053
58,文京区,東京都文京区根津二丁目,139.76437,35.71965,消費者,相原 美月,536.862894
59,文京区,東京都文京区根津一丁目,139.76161,35.71965,消費者,野田 凛,1102.437755
60,文京区,東京都文京区向丘二丁目,139.7565,35.72237,大企業,百井 大輔,660.841363
61,文京区,東京都文京区向丘一丁目,139.75522,35.72005,小規模事業所,櫛野 颯太,603.6172278
62,文京区,東京都文京区後楽二丁目,139.74539,35.7061,小規模事業所,末政 螢,1175.012561
63,文京区,東京都文京区後楽一丁目,139.75067,35.70538,消費者,水上 瞳,296.0476892
64,文京区,東京都文京区関口二丁目,139.72716,35.7118,消費者,古河 七海,420.5086723
65,文京区,東京都文京区関口三丁目,139.72798,35.71404,消費者,清沢 愛,408.6835302
66,文京区,東京都文京区関口一丁目,139.73357,35.70912,小規模事業所,浦辻 桐子,1202.519505
67,文京区,東京都文京区音羽二丁目,139.72768,35.71942,消費者,満永 和美,1017.072554
68,文京区,東京都文京区音羽一丁目,139.72961,35.71452,消費者,西見 颯太,696.4667052
69,中央区,東京都中央区明石町,139.77663,35.66849,消費者,生田目 和美,1043.175323
70,中央区,東京都中央区湊二丁目,139.77899,35.67151,大企業,西垣 翔太,1316.65259
71,中央区,東京都中央区湊三丁目,139.77852,35.67046,小規模事業所,曲渕 翔太,812.5053754
72,中央区,東京都中央区湊一丁目,139.77939,35.673,小規模事業所,長井 優太,1024.406015
73,中央区,東京都中央区豊海町,139.76865,35.65401,消費者,朝倉 実,371.4225591
74,中央区,東京都中央区浜離宮庭園,139.7632,35.66023,消費者,蔵前 真弓,823.8634992
75,中央区,東京都中央区八丁堀二丁目,139.77606,35.67685,消費者,登川 海斗,898.9565416
76,中央区,東京都中央区八丁堀四丁目,139.77602,35.67439,消費者,穐山 真美,958.0652219
77,中央区,東京都中央区八丁堀三丁目,139.77601,35.67541,小規模事業所,稲毛 正,1186.591577
78,中央区,東京都中央区八丁堀一丁目,139.77642,35.67779,消費者,塩川 昭夫,465.3469364
79,中央区,東京都中央区八重洲二丁目,139.76809,35.678,消費者,柵木 葵,519.557295
80,中央区,東京都中央区八重洲一丁目,139.77099,35.68262,大企業,佐分 凛,512.6338757
81,中央区,東京都中央区入船二丁目,139.77666,35.67213,大企業,平川 輝,773.1689411
82,中央区,東京都中央区入船三丁目,139.77628,35.67107,消費者,赤羽 優月,3538.614843
83,中央区,東京都中央区入船一丁目,139.77702,35.67313,大企業,宇良 明美,1552.838661
84,中央区,東京都中央区日本橋本町二丁目,139.77625,35.68792,大企業,福西 彩花,542.6078018
85,中央区,東京都中央区日本橋本町四丁目,139.77535,35.69019,消費者,大音 康平,665.1306478
86,中央区,東京都中央区日本橋本町三丁目,139.77589,35.68893,大企業,東野 実,1001.745737
87,中央区,東京都中央区日本橋本町一丁目,139.77669,35.68605,大企業,多胡 颯太,431.7293944
88,中央区,東京都中央区日本橋本石町二丁目,139.77147,35.68644,消費者,三好 真一,855.8902022
89,中央区,東京都中央区日本橋本石町四丁目,139.7704,35.68852,消費者,布留川 丈夫,351.5824073
90,中央区,東京都中央区日本橋本石町三丁目,139.7709,35.68754,消費者,沖津 延,1114.157718
91,中央区,東京都中央区日本橋本石町一丁目,139.77212,35.68516,大企業,松岡 彩花,472.584037
92,中央区,東京都中央区日本橋堀留町二丁目,139.78107,35.68861,消費者,島名 千代子,660.0442086
93,中央区,東京都中央区日本橋堀留町一丁目,139.77973,35.68786,小規模事業所,大友 美羽,926.4201761
94,中央区,東京都中央区日本橋富沢町,139.78256,35.68888,消費者,芹田 翼,681.7910988
95,中央区,東京都中央区日本橋浜町二丁目,139.78774,35.68778,大企業,伊志嶺 正博,1056.00672
96,中央区,東京都中央区日本橋浜町三丁目,139.78945,35.68524,消費者,後村 美咲,765.6496739
97,中央区,東京都中央区日本橋浜町一丁目,139.78685,35.69017,消費者,秋庭 涼,1189.710635
98,中央区,東京都中央区日本橋箱崎町,139.7868,35.68065,消費者,友光 翼,642.1529092
99,中央区,東京都中央区日本橋馬喰町二丁目,139.78348,35.69543,小規模事業所,宮腰 節子,621.4577658
100,中央区,東京都中央区日本橋馬喰町一丁目,139.78282,35.6936,大企業,蘇武 真一,577.79274
101,中央区,東京都中央区日本橋二丁目,139.77372,35.68135,大企業,和知 優月,796.201814
102,中央区,東京都中央区日本橋中洲,139.7902,35.68357,小規模事業所,徳満 久美子,566.0761293
103,中央区,東京都中央区日本橋大伝馬町,139.78023,35.69041,消費者,篭谷 翔太,794.0049223
104,中央区,東京都中央区日本橋人形町二丁目,139.78442,35.6859,消費者,武田 遥,837.4535794
105,中央区,東京都中央区日本橋人形町三丁目,139.78158,35.6867,大企業,竹内 幸子,315.1491082
106,中央区,東京都中央区日本橋人形町一丁目,139.78223,35.68513,小規模事業所,竹石 哲也,773.9898524
107,中央区,東京都中央区日本橋小網町,139.78125,35.68211,消費者,深田 豊,590.6878478
108,中央区,東京都中央区日本橋小伝馬町,139.77921,35.69152,消費者,山岡 由美,1296.22023
109,中央区,東京都中央区日本橋小舟町,139.77834,35.6866,小規模事業所,早崎 学,510.0665184
110,中央区,東京都中央区日本橋室町二丁目,139.77344,35.6868,小規模事業所,濱 真美,593.7513541
111,中央区,東京都中央区日本橋室町四丁目,139.77247,35.68911,大企業,菊間 延,647.497129
112,中央区,東京都中央区日本橋室町三丁目,139.77298,35.68798,小規模事業所,阿久井 真一,995.967611
113,中央区,東京都中央区日本橋室町一丁目,139.77438,35.68554,大企業,軸丸 剛,940.3352337
114,中央区,東京都中央区日本橋三丁目,139.77282,35.67989,大企業,塩原 真弓,373.4006137
115,中央区,東京都中央区日本橋久松町,139.78443,35.68932,消費者,栗村 凛,678.2467815
116,中央区,東京都中央区日本橋茅場町二丁目,139.77904,35.67926,小規模事業所,木野村 海斗,428.5142529
117,中央区,東京都中央区日本橋茅場町三丁目,139.77799,35.67801,消費者,三ツ木 貞子,578.0273316
118,中央区,東京都中央区日本橋茅場町一丁目,139.77996,35.68082,消費者,種岡 大地,870.1743077
119,中央区,東京都中央区日本橋兜町,139.77699,35.68041,大企業,高杉 昭夫,442.3129259
120,中央区,東京都中央区日本橋蛎殻町二丁目,139.78624,35.68365,消費者,芹澤 千代子,459.9993654
121,中央区,東京都中央区日本橋蛎殻町一丁目,139.78378,35.68232,大企業,垣内 愛,822.5962059
122,中央区,東京都中央区日本橋横山町,139.78374,35.69302,小規模事業所,山地 恵,1336.844818
123,中央区,東京都中央区日本橋一丁目,139.77479,35.68334,小規模事業所,松坂 霞,708.7130015
124,中央区,東京都中央区東日本橋二丁目,139.78645,35.6936,大企業,藤上 貞子,759.6308167
125,中央区,東京都中央区東日本橋三丁目,139.7839,35.69162,消費者,安食 貞子,273.4601238
126,中央区,東京都中央区東日本橋一丁目,139.78643,35.69141,消費者,泉澤 小百合,4823.807007
127,中央区,東京都中央区佃二丁目,139.7846,35.66723,小規模事業所,鳥羽 拓也,983.5103528
128,中央区,東京都中央区佃三丁目,139.78615,35.66516,消費者,島崎 清,683.059202
129,中央区,東京都中央区佃一丁目,139.78252,35.66872,小規模事業所,浅野 真美,622.0899368
130,中央区,東京都中央区築地六丁目,139.77264,35.66513,消費者,関村 由美,530.2793204
131,中央区,東京都中央区築地二丁目,139.77165,35.66903,大企業,大路 夏希,941.7106717
132,中央区,東京都中央区築地七丁目,139.77455,35.66627,消費者,染矢 大輝,1095.088716
133,中央区,東京都中央区築地四丁目,139.76962,35.66637,大企業,大門 美優,889.3670454
134,中央区,東京都中央区築地三丁目,139.77309,35.6682,消費者,茂野 輝,466.4114626
135,中央区,東京都中央区築地五丁目,139.76726,35.66406,消費者,駒田 静香,805.0026438
136,中央区,東京都中央区築地一丁目,139.77061,35.66955,消費者,二川 翔太,724.1361289
137,中央区,東京都中央区晴海二丁目,139.78471,35.6571,大企業,菊間 直子,883.5705402
138,中央区,東京都中央区晴海四丁目,139.78056,35.65409,小規模事業所,本林 豊,634.0841957
139,中央区,東京都中央区晴海三丁目,139.7781,35.65571,小規模事業所,鎮目 武,6245.34
140,中央区,東京都中央区晴海五丁目,139.77392,35.65069,消費者,坂東 和也,1101.512396
141,中央区,東京都中央区晴海一丁目,139.78407,35.65951,消費者,尾澤 由美子,1111.613457
142,中央区,東京都中央区新富二丁目,139.77335,35.67179,消費者,半田 真美,396.0550734
143,中央区,東京都中央区新富一丁目,139.77381,35.67291,消費者,矢幡 勝,740.3754516
144,中央区,東京都中央区新川二丁目,139.78128,35.67531,消費者,吉河 大翔,493.2368279
145,中央区,東京都中央区新川一丁目,139.7836,35.67729,消費者,阿保 文子,1056.135348
146,中央区,東京都中央区勝どき六丁目,139.77275,35.65556,小規模事業所,原澤 弘子,806.2980513
147,中央区,東京都中央区勝どき二丁目,139.77797,35.65892,小規模事業所,宮家 修,995.3621237
148,中央区,東京都中央区勝どき四丁目,139.77584,35.65756,消費者,宮家 修,496.404138
149,中央区,東京都中央区勝どき三丁目,139.77395,35.65944,大企業,永盛 拓海,898.3818183
150,中央区,東京都中央区勝どき五丁目,139.77084,35.65733,消費者,堂本 翼,435.2605064
151,中央区,東京都中央区勝どき一丁目,139.77604,35.66084,消費者,増川 豊,344.7416471
152,中央区,東京都中央区月島二丁目,139.78373,35.66315,消費者,寒川 大輔,587.551353
153,中央区,東京都中央区月島四丁目,139.78129,35.66117,小規模事業所,高島 智子,401.0115407
154,中央区,東京都中央区月島三丁目,139.7794,35.66343,消費者,小塙 皐,829.813526
155,中央区,東京都中央区月島一丁目,139.78149,35.66521,大企業,三苫 剛,809.1126607
156,中央区,東京都中央区銀座六丁目,139.76347,35.66999,小規模事業所,穐田 優月,821.8001467
157,中央区,東京都中央区銀座八丁目,139.76159,35.6683,小規模事業所,溝部 桜,390.6803758
158,中央区,東京都中央区銀座二丁目,139.7677,35.67319,消費者,今本 丈夫,544.5839371
159,中央区,東京都中央区銀座七丁目,139.76248,35.66917,消費者,岸本 直美,364.6172674
160,中央区,東京都中央区銀座四丁目,139.76547,35.67172,消費者,塩井 香,1193.765607
161,中央区,東京都中央区銀座三丁目,139.76697,35.67216,消費者,川添 大樹,670.7890767
162,中央区,東京都中央区銀座五丁目,139.7644,35.67085,小規模事業所,桃木 恵,1212.920693
163,中央区,東京都中央区銀座一丁目,139.76878,35.67432,小規模事業所,谷口 貞子,326.4327056
164,中央区,東京都中央区京橋二丁目,139.7701,35.67711,消費者,金海 孝,231.8558965
165,中央区,東京都中央区京橋三丁目,139.76923,35.67586,消費者,八田 結菜,487.3133258
166,中央区,東京都中央区京橋一丁目,139.77092,35.67849,大企業,川原田 法子,1340.553851
167,千代田区,東京都千代田区六番町,139.733,35.68777,小規模事業所,渋沢 克己,402.4390706
168,千代田区,東京都千代田区有楽町二丁目,139.76409,35.67455,消費者,柳井 恵美,1331.900263
169,千代田区,東京都千代田区有楽町一丁目,139.76147,35.67511,消費者,目崎 翔,737.5215073
170,千代田区,東京都千代田区北の丸公園,139.74978,35.69092,大企業,内間 海斗,554.5401696
171,千代田区,東京都千代田区平河町二丁目,139.73957,35.6805,消費者,濱田 幸子,640.3389944
172,千代田区,東京都千代田区平河町一丁目,139.74014,35.68284,消費者,梅沢 一樹,534.4340772
173,千代田区,東京都千代田区富士見二丁目,139.74293,35.69694,小規模事業所,阿彦 法子,1274.706954
174,千代田区,東京都千代田区富士見一丁目,139.74714,35.69727,大企業,門田 颯太,825.6598033
175,千代田区,東京都千代田区飯田橋二丁目,139.75107,35.69935,大企業,三浦 和美,610.4005143
176,千代田区,東京都千代田区飯田橋四丁目,139.74645,35.70064,小規模事業所,逸見 真美,338.0602564
177,千代田区,東京都千代田区飯田橋三丁目,139.75033,35.70056,消費者,持田 三郎,506.4966636
178,千代田区,東京都千代田区飯田橋一丁目,139.74943,35.69762,消費者,郷田 延,399.2765677
179,千代田区,東京都千代田区隼町,139.74343,35.68153,大企業,朝見 桐子,437.0912329
180,千代田区,東京都千代田区日比谷公園,139.75658,35.67475,消費者,花畑 三郎,984.1219762
181,千代田区,東京都千代田区二番町,139.73501,35.68605,消費者,鶴沢 寛,584.7944735
182,千代田区,東京都千代田区内神田二丁目,139.76819,35.69085,消費者,丸木 久美子,537.2533893
183,千代田区,東京都千代田区内神田三丁目,139.7699,35.69157,消費者,富永 四郎,781.8428219
184,千代田区,東京都千代田区内神田一丁目,139.76594,35.6907,小規模事業所,久貝 大輝,575.1580018
185,千代田区,東京都千代田区内幸町二丁目,139.75464,35.67078,消費者,多田 明美,605.025386
186,千代田区,東京都千代田区内幸町一丁目,139.75822,35.67113,消費者,須佐 美羽,627.8000533
187,千代田区,東京都千代田区東神田二丁目,139.78019,35.69604,大企業,勝田 翔太,404.749754
188,千代田区,東京都千代田区東神田三丁目,139.78154,35.69718,小規模事業所,稲垣 結衣,439.1015668
189,千代田区,東京都千代田区東神田一丁目,139.78061,35.69444,消費者,梶ケ谷 正男,478.3008048
190,千代田区,東京都千代田区鍛冶町二丁目,139.7721,35.69199,消費者,立和名 輝,1017.806416
191,千代田区,東京都千代田区鍛冶町一丁目,139.77186,35.69026,消費者,川崎 一樹,566.1606345
192,千代田区,東京都千代田区大手町二丁目,139.76729,35.68658,小規模事業所,稲熊 凛,1011.023861
193,千代田区,東京都千代田区大手町一丁目,139.76257,35.68849,大企業,多和田 恵美,1106.721506
194,千代田区,東京都千代田区千代田,139.75334,35.68447,小規模事業所,亀石 桐子,1222.383044
195,千代田区,東京都千代田区西神田二丁目,139.75504,35.6988,消費者,田沼 美咲,630.8787936
196,千代田区,東京都千代田区西神田三丁目,139.75314,35.69783,消費者,足立 萌,869.7409875
197,千代田区,東京都千代田区西神田一丁目,139.75696,35.69941,大企業,瀬川 美咲,509.6666378
198,千代田区,東京都千代田区神田和泉町,139.7787,35.69983,消費者,植草 丈夫,661.6037549
199,千代田区,東京都千代田区神田練塀町,139.77436,35.70087,大企業,勝山 緑,703.4848142
200,千代田区,東京都千代田区神田北乗物町,139.77367,35.69231,小規模事業所,吉牟田 彩乃,546.1503853
201,千代田区,東京都千代田区神田平河町,139.77618,35.69774,消費者,雪野 凛,1169.861702
202,千代田区,東京都千代田区神田富山町,139.77302,35.69357,消費者,薄木 実,452.8897886
203,千代田区,東京都千代田区神田美土代町,139.76566,35.69364,消費者,赤岩 凛,789.2999323
204,千代田区,東京都千代田区神田美倉町,139.7742,35.69102,消費者,大竹 学,455.8725085
205,千代田区,東京都千代田区神田東松下町,139.77418,35.69462,消費者,村田 朋美,647.1493421
206,千代田区,東京都千代田区神田東紺屋町,139.77479,35.69289,大企業,渡口 葵,399.1588542
207,千代田区,東京都千代田区神田鍛冶町三丁目,139.77045,35.69342,小規模事業所,広田 和也,692.3835063
208,千代田区,東京都千代田区神田淡路町二丁目,139.76796,35.69723,消費者,篠本 香,1116.417309
209,千代田区,東京都千代田区神田淡路町一丁目,139.76624,35.69569,消費者,沼田 結菜,793.9989651
210,千代田区,東京都千代田区神田多町二丁目,139.76907,35.69378,大企業,桜井 健三,887.0492101
211,千代田区,東京都千代田区神田相生町,139.77382,35.69966,大企業,高間 海斗,643.7548673
212,千代田区,東京都千代田区神田西福田町,139.774,35.69124,消費者,山城 緑,1089.96093
213,千代田区,東京都千代田区神田須田町二丁目,139.77376,35.69616,大企業,吉家 桜,482.8412647
214,千代田区,東京都千代田区神田須田町一丁目,139.76993,35.69683,大企業,長沼 翔太,751.1129887
215,千代田区,東京都千代田区神田神保町二丁目,139.75631,35.69667,消費者,増原 優香,806.2336366
216,千代田区,東京都千代田区神田神保町三丁目,139.75401,35.69575,消費者,雨宮 武,663.1432547
217,千代田区,東京都千代田区神田神保町一丁目,139.75907,35.69658,消費者,平松 螢,784.9748197
218,千代田区,東京都千代田区神田松永町,139.77517,35.70101,大企業,垣谷 霞,1160.719034
219,千代田区,東京都千代田区神田小川町二丁目,139.76398,35.69493,消費者,一ノ宮 萌,745.90698
220,千代田区,東京都千代田区神田小川町三丁目,139.76231,35.69529,小規模事業所,安宅 節子,845.7552489
221,千代田区,東京都千代田区神田小川町一丁目,139.7662,35.69514,消費者,東 匠,834.300289
222,千代田区,東京都千代田区神田駿河台二丁目,139.76166,35.69979,消費者,西俣 陽菜,895.9045008
223,千代田区,東京都千代田区神田駿河台四丁目,139.76493,35.69872,大企業,稲木 静香,387.9543562
224,千代田区,東京都千代田区神田駿河台三丁目,139.76473,35.69643,消費者,村田 美羽,591.9173059
225,千代田区,東京都千代田区神田駿河台一丁目,139.76233,35.69785,大企業,玉崎 七海,807.211299
226,千代田区,東京都千代田区神田司町二丁目,139.76776,35.69395,小規模事業所,印南 実,643.9220437
227,千代田区,東京都千代田区神田佐久間町二丁目,139.77627,35.69807,消費者,赤荻 貞子,1175.357797
228,千代田区,東京都千代田区神田佐久間町四丁目,139.77981,35.69829,消費者,金子 延,523.8213129
229,千代田区,東京都千代田区神田佐久間町三丁目,139.77733,35.69778,小規模事業所,井村 梅子,1085.026667
230,千代田区,東京都千代田区神田佐久間町一丁目,139.77409,35.69732,大企業,和山 一樹,411.6516735
231,千代田区,東京都千代田区神田佐久間河岸,139.77649,35.6971,消費者,成瀬 正男,623.0587129
232,千代田区,東京都千代田区神田紺屋町,139.77394,35.69202,大企業,竹鼻 彩花,668.3808965
233,千代田区,東京都千代田区神田錦町二丁目,139.76329,35.69296,消費者,唐木 雨夜,951.1471033
234,千代田区,東京都千代田区神田錦町三丁目,139.76082,35.69325,大企業,草間 実,574.9447158
235,千代田区,東京都千代田区神田錦町一丁目,139.76431,35.69293,大企業,鳥海 葵,671.9524091
236,千代田区,東京都千代田区神田岩本町,139.7751,35.69542,消費者,国谷 雄大,790.3190697
237,千代田区,東京都千代田区神田花岡町,139.77448,35.69909,消費者,辻岡 美羽,1282.879281
238,千代田区,東京都千代田区四番町,139.73765,35.68936,大企業,池田 太陽,557.2439048
239,千代田区,東京都千代田区三番町,139.74159,35.68986,消費者,山瀬 翼,784.6605184
240,千代田区,東京都千代田区三崎町二丁目,139.75438,35.70067,大企業,小手川 翼,990.4614378
241,千代田区,東京都千代田区三崎町三丁目,139.75204,35.70053,大企業,鷲田 正男,1050.16007
242,千代田区,東京都千代田区三崎町一丁目,139.75619,35.70095,大企業,塩浦 霞,502.6519588
243,千代田区,東京都千代田区麹町六丁目,139.73271,35.68509,大企業,姉川 霞,787.1482755
244,千代田区,東京都千代田区麹町二丁目,139.74061,35.6851,小規模事業所,上東 義雄,710.2114063
245,千代田区,東京都千代田区麹町四丁目,139.73647,35.6832,大企業,檜山 節子,1424.895743
246,千代田区,東京都千代田区麹町三丁目,139.73843,35.68447,小規模事業所,大舘 翔太,409.1712155
247,千代田区,東京都千代田区麹町五丁目,139.73453,35.68334,消費者,浜辺 桐子,410.7472594
248,千代田区,東京都千代田区麹町一丁目,139.74291,35.68487,消費者,安間 寛,560.2892372
249,千代田区,東京都千代田区皇居外苑,139.75731,35.6796,消費者,大草 陽子,559.0872885
250,千代田区,東京都千代田区五番町,139.73428,35.68933,大企業,楢原 美月,560.8471643
251,千代田区,東京都千代田区九段北二丁目,139.74652,35.69564,消費者,鉢呂 禎子,493.9388375
252,千代田区,東京都千代田区九段北四丁目,139.73946,35.69265,小規模事業所,奥脇 誠,840.7093084
253,千代田区,東京都千代田区九段北三丁目,139.74257,35.69423,消費者,保延 太陽,302.7323974
254,千代田区,東京都千代田区九段北一丁目,139.74982,35.69601,消費者,相馬 健太,722.6133985
255,千代田区,東京都千代田区九段南二丁目,139.74639,35.69309,大企業,島崎 美優,731.5517965
256,千代田区,東京都千代田区九段南四丁目,139.73806,35.69095,大企業,丹藤 凛,1116.848867
257,千代田区,東京都千代田区九段南三丁目,139.74209,35.69244,小規模事業所,徳平 拓海,790.7410631
258,千代田区,東京都千代田区九段南一丁目,139.75436,35.69376,消費者,川上 葵,725.9010917
259,千代田区,東京都千代田区紀尾井町,139.73531,35.68097,消費者,峰尾 香,340.5140445
260,千代田区,東京都千代田区岩本町二丁目,139.77666,35.69346,消費者,光藤 正男,489.9159242
261,千代田区,東京都千代田区岩本町三丁目,139.77716,35.69578,小規模事業所,尾又 重子,890.619048
262,千代田区,東京都千代田区岩本町一丁目,139.77703,35.69206,消費者,浦部 七海,764.2321234
263,千代田区,東京都千代田区丸の内二丁目,139.7634,35.67982,大企業,秋山 武,799.7304429
264,千代田区,東京都千代田区丸の内三丁目,139.76345,35.67722,消費者,永尾 大翔,441.3786113
265,千代田区,東京都千代田区丸の内一丁目,139.76408,35.68302,消費者,若生 陽子,640.4872744
266,千代田区,東京都千代田区外神田六丁目,139.7709,35.70405,消費者,久保野 剛,657.7175358
267,千代田区,東京都千代田区外神田二丁目,139.768,35.70198,大企業,脇本 千代,791.3522518
268,千代田区,東京都千代田区外神田四丁目,139.77272,35.70076,消費者,岩崎 彩乃,449.3580984
269,千代田区,東京都千代田区外神田三丁目,139.77019,35.70152,小規模事業所,中林 康平,514.8967054
270,千代田区,東京都千代田区外神田五丁目,139.77239,35.70421,消費者,蔭山 陸,403.8296721
271,千代田区,東京都千代田区外神田一丁目,139.77012,35.69909,消費者,赤木 和子,770.6745866
272,千代田区,東京都千代田区霞が関二丁目,139.75073,35.67571,大企業,鍬田 香,844.8632567
273,千代田区,東京都千代田区霞が関三丁目,139.74827,35.67161,消費者,明石 優香,559.487527
274,千代田区,東京都千代田区霞が関一丁目,139.75342,35.67472,消費者,島林 智子,491.2714797
275,千代田区,東京都千代田区猿楽町二丁目,139.75838,35.70002,消費者,小柳 駿,1150.720722
276,千代田区,東京都千代田区猿楽町一丁目,139.75995,35.69847,小規模事業所,門松 輝,7653.22
277,千代田区,東京都千代田区永田町二丁目,139.7405,35.67571,大企業,牧原 蓮,747.2565473
278,千代田区,東京都千代田区永田町一丁目,139.74575,35.67633,消費者,朝川 海斗,661.6134674
279,千代田区,東京都千代田区一番町,139.73967,35.68772,消費者,成山 慶子,650.5478612
280,千代田区,東京都千代田区一ツ橋二丁目,139.75732,35.69295,消費者,織田 夏希,656.3641334
281,千代田区,東京都千代田区一ツ橋一丁目,139.75669,35.69163,小規模事業所,館山 健三,635.1472715
282,新宿区,東京都新宿区揚場町,139.7432,35.70239,消費者,上垣 禎子,610.3424362
283,新宿区,東京都新宿区余丁町,139.71647,35.69674,消費者,柴川 翔太,452.9590501
284,新宿区,東京都新宿区矢来町,139.7326,35.70348,消費者,藪田 翔太,606.1989369
285,新宿区,東京都新宿区本塩町,139.7299,35.68926,消費者,永末 昭夫,724.0160457
286,新宿区,東京都新宿区北町,139.73568,35.70023,消費者,中津 茂,792.7846498
287,新宿区,東京都新宿区北新宿二丁目,139.68931,35.6977,小規模事業所,木戸口 直美,1000.807962
288,新宿区,東京都新宿区北新宿四丁目,139.69234,35.70738,消費者,宮西 拓海,747.0748718
289,新宿区,東京都新宿区北新宿三丁目,139.6913,35.70298,消費者,尾尻 正博,249.9061472
290,新宿区,東京都新宿区北新宿一丁目,139.69441,35.69907,大企業,粉川 緑,511.0120981
291,新宿区,東京都新宿区北山伏町,139.73059,35.6997,大企業,川野辺 大地,417.8378888
292,新宿区,東京都新宿区弁天町,139.72702,35.70246,大企業,花城 恵美,558.6769439
293,新宿区,東京都新宿区片町,139.72496,35.69235,消費者,川久保 進,743.8906888
294,新宿区,東京都新宿区払方町,139.73646,35.69797,小規模事業所,中河 大輝,729.6054155
295,新宿区,東京都新宿区富久町,139.716,35.69326,小規模事業所,吉谷 翔,788.0805185
296,新宿区,東京都新宿区百人町二丁目,139.69828,35.70257,消費者,西川 愛美,564.1461445
297,新宿区,東京都新宿区百人町四丁目,139.6987,35.70813,消費者,青井 翔太,846.2708627
298,新宿区,東京都新宿区百人町三丁目,139.69762,35.70579,大企業,渋澤 由美,1156.657472
299,新宿区,東京都新宿区百人町一丁目,139.69921,35.70019,消費者,大塩 朋美,516.6803023
300,新宿区,東京都新宿区白銀町,139.7386,35.70431,消費者,渡部 優香,1441.601472
301,新宿区,東京都新宿区馬場下町,139.71951,35.70623,大企業,安河内 恵美,777.7119882
302,新宿区,東京都新宿区納戸町,139.73334,35.69764,大企業,船見 一樹,757.9716202
303,新宿区,東京都新宿区二十騎町,139.73113,35.69852,大企業,海老沢 千代,428.7936055
304,新宿区,東京都新宿区南町,139.73675,35.69882,大企業,和田 涼,877.5888908
305,新宿区,東京都新宿区南山伏町,139.73201,35.69911,消費者,大宮司 美羽,682.2256881
306,新宿区,東京都新宿区南元町,139.72417,35.68076,大企業,長谷田 拓海,277.5359175
307,新宿区,東京都新宿区南榎町,139.72937,35.70213,消費者,猪原 大輝,493.0256643
308,新宿区,東京都新宿区内藤町,139.71252,35.68685,小規模事業所,八野 克己,335.2857215
309,新宿区,東京都新宿区東五軒町,139.73968,35.70625,大企業,倉岡 陸,1095.663355
310,新宿区,東京都新宿区東榎町,139.72905,35.70569,大企業,市瀬 義雄,831.520718
311,新宿区,東京都新宿区天神町,139.731,35.70562,消費者,藤見 智子,483.0207297
312,新宿区,東京都新宿区津久戸町,139.74168,35.70306,消費者,岩本 明美,498.5086573
313,新宿区,東京都新宿区中里町,139.73228,35.70606,大企業,磯辺 昭夫,441.8931699
314,新宿区,東京都新宿区中落合二丁目,139.69326,35.71933,大企業,岩松 大地,999.9922817
315,新宿区,東京都新宿区中落合四丁目,139.68285,35.71834,大企業,方波見 凛,391.8215382
316,新宿区,東京都新宿区中落合三丁目,139.68839,35.72162,小規模事業所,甲田 霞,548.663595
317,新宿区,東京都新宿区中落合一丁目,139.69018,35.71726,大企業,吉丸 進,525.4232056
318,新宿区,東京都新宿区中町,139.73625,35.69942,消費者,高木 小百合,716.6806565
319,新宿区,東京都新宿区中井二丁目,139.68328,35.71603,大企業,見目 海斗,758.5972457
320,新宿区,東京都新宿区中井一丁目,139.68399,35.71477,大企業,小野寺 拓海,361.9071719
321,新宿区,東京都新宿区筑土八幡町,139.74048,35.70479,消費者,富谷 義雄,949.7963485
322,新宿区,東京都新宿区築地町,139.73623,35.70625,小規模事業所,宮石 直美,594.9119161
323,新宿区,東京都新宿区箪笥町,139.73503,35.70099,消費者,阿久 進,431.1064038
324,新宿区,東京都新宿区大京町,139.7168,35.68291,消費者,猪田 真,346.080228
325,新宿区,東京都新宿区大久保二丁目,139.70522,35.7028,消費者,室田 大翔,585.5807678
326,新宿区,東京都新宿区大久保三丁目,139.70579,35.7067,消費者,縄田 優月,667.2037646
327,新宿区,東京都新宿区大久保一丁目,139.70445,35.69976,消費者,冨田 正博,919.8586114
328,新宿区,東京都新宿区袋町,139.73861,35.70087,大企業,折山 桜,534.9258939
329,新宿区,東京都新宿区早稲田南町,139.7247,35.70389,消費者,飯島 海斗,1188.376465
330,新宿区,東京都新宿区早稲田鶴巻町,139.72469,35.70835,消費者,鷹取 凛,484.7908567
331,新宿区,東京都新宿区早稲田町,139.72332,35.70608,消費者,三澤 真美,845.0571707
332,新宿区,東京都新宿区赤城元町,139.7368,35.70501,大企業,新関 香,874.5301209
333,新宿区,東京都新宿区赤城下町,139.73413,35.70605,消費者,関和 美月,880.7180659
334,新宿区,東京都新宿区西落合二丁目,139.6775,35.72132,小規模事業所,上園 大輝,704.9223506
335,新宿区,東京都新宿区西落合四丁目,139.67914,35.72638,消費者,大町 翔,812.752665
336,新宿区,東京都新宿区西落合三丁目,139.67985,35.72446,消費者,野内 直樹,554.6712206
337,新宿区,東京都新宿区西落合一丁目,139.68156,35.72091,大企業,登坂 克己,489.9855157
338,新宿区,東京都新宿区西早稲田二丁目,139.7134,35.70905,大企業,森友 香,721.5145845
339,新宿区,東京都新宿区西早稲田三丁目,139.71445,35.71173,大企業,木下 遥,-103.58886
340,新宿区,東京都新宿区西早稲田一丁目,139.71928,35.70949,消費者,宮道 和也,685.8639065
341,新宿区,東京都新宿区西新宿六丁目,139.69081,35.69358,小規模事業所,泊 哲也,707.6847304
342,新宿区,東京都新宿区西新宿八丁目,139.69305,35.69582,消費者,綾部 剛,493.0685533
343,新宿区,東京都新宿区西新宿二丁目,139.69222,35.68993,消費者,辺見 翔太,635.1995461
344,新宿区,東京都新宿区西新宿七丁目,139.6974,35.69526,消費者,笠松 紅子,821.5197541
345,新宿区,東京都新宿区西新宿四丁目,139.68613,35.68846,消費者,八神 皐,1129.43685
346,新宿区,東京都新宿区西新宿三丁目,139.68827,35.68382,小規模事業所,余田 直子,727.9377148
347,新宿区,東京都新宿区西新宿五丁目,139.68608,35.69242,消費者,広森 麗華,503.2231862
348,新宿区,東京都新宿区西新宿一丁目,139.69777,35.6911,大企業,尾高 智子,320.7936951
349,新宿区,東京都新宿区西五軒町,139.73792,35.70713,大企業,沓沢 大輔,363.667438
350,新宿区,東京都新宿区水道町,139.73655,35.70812,消費者,三溝 誠,401.7539256
351,新宿区,東京都新宿区須賀町,139.72322,35.68483,消費者,末長 誠,1161.412528
352,新宿区,東京都新宿区神楽坂六丁目,139.73725,35.70324,大企業,松平 静香,853.4620213
353,新宿区,東京都新宿区神楽坂二丁目,139.74203,35.70103,消費者,二井 勇,1278.574567
354,新宿区,東京都新宿区神楽坂四丁目,139.74022,35.70224,小規模事業所,肥後 彩乃,541.5815979
355,新宿区,東京都新宿区神楽坂三丁目,139.74112,35.70172,消費者,阿波根 克己,517.3844714
356,新宿区,東京都新宿区神楽坂五丁目,139.73927,35.70258,小規模事業所,溝上 健三,972.2659611
357,新宿区,東京都新宿区神楽坂一丁目,139.74277,35.7006,大企業,岡畑 萌,806.974972
358,新宿区,東京都新宿区神楽河岸,139.744,35.70124,大企業,泉 和也,1114.569338
359,新宿区,東京都新宿区新小川町,139.74239,35.70625,大企業,勝部 一樹,1160.669302
360,新宿区,東京都新宿区新宿六丁目,139.70989,35.69602,消費者,河内 延,416.1861952
361,新宿区,東京都新宿区新宿二丁目,139.70842,35.69066,大企業,福森 法子,1023.617917
362,新宿区,東京都新宿区新宿七丁目,139.71205,35.69944,大企業,深田 孝,980.6188381
363,新宿区,東京都新宿区新宿四丁目,139.70398,35.68893,大企業,波岡 小百合,418.3936478
364,新宿区,東京都新宿区新宿三丁目,139.70299,35.69124,小規模事業所,柿下 海斗,839.9580455
365,新宿区,東京都新宿区新宿五丁目,139.70933,35.69292,消費者,松家 彩花,424.5886267
366,新宿区,東京都新宿区新宿一丁目,139.7125,35.68956,大企業,藤ケ崎 直美,477.9695765
367,新宿区,東京都新宿区信濃町,139.71881,35.68275,消費者,狩谷 直樹,930.8784335
368,新宿区,東京都新宿区上落合二丁目,139.68837,35.71294,消費者,棚村 恵介,493.7995814
369,新宿区,東京都新宿区上落合三丁目,139.68422,35.71278,小規模事業所,矢川 良子,635.9585041
370,新宿区,東京都新宿区上落合一丁目,139.69281,35.71319,消費者,平野 誠,1172.767122
371,新宿区,東京都新宿区住吉町,139.72022,35.69498,大企業,都竹 健太,942.0778459
372,新宿区,東京都新宿区舟町,139.7213,35.69098,大企業,東條 麗華,1180.84965
373,新宿区,東京都新宿区若葉二丁目,139.72482,35.6853,大企業,山尾 真美,445.4926475
374,新宿区,東京都新宿区若葉三丁目,139.72441,35.68271,消費者,甲斐 丈夫,328.6165146
375,新宿区,東京都新宿区若葉一丁目,139.72695,35.68429,消費者,鶴井 進,1252.485949
376,新宿区,東京都新宿区若松町,139.71907,35.69987,消費者,蒲沢 修,733.8694493
377,新宿区,東京都新宿区若宮町,139.74003,35.69971,消費者,豊里 禎子,611.1072821
378,新宿区,東京都新宿区市谷柳町,139.72681,35.69899,消費者,森 延,390.7023925
379,新宿区,東京都新宿区市谷薬王寺町,139.72645,35.69703,小規模事業所,田久保 実,653.5558663
380,新宿区,東京都新宿区市谷本村町,139.72958,35.6937,小規模事業所,折田 匠,516.3256306
381,新宿区,東京都新宿区市谷八幡町,139.73487,35.69296,消費者,井狩 海斗,521.3174821
382,新宿区,東京都新宿区市谷田町二丁目,139.73779,35.69533,消費者,中安 梅子,679.6794947
383,新宿区,東京都新宿区市谷田町三丁目,139.73888,35.69674,消費者,垣本 千代,405.2494494
384,新宿区,東京都新宿区市谷田町一丁目,139.73647,35.69306,消費者,有元 結菜,1115.415208
385,新宿区,東京都新宿区市谷長延寺町,139.73479,35.69482,大企業,岩名 涼,455.2389516
386,新宿区,東京都新宿区市谷仲之町,139.72329,35.69511,大企業,川並 由美,689.9490792
387,新宿区,東京都新宿区市谷鷹匠町,139.73389,35.69614,小規模事業所,桜木 蓮,921.2247566
388,新宿区,東京都新宿区市谷台町,139.71898,35.69372,消費者,門林 哲也,956.3834359
389,新宿区,東京都新宿区市谷船河原町,139.74026,35.69851,消費者,古内 慶子,1400.200437
390,新宿区,東京都新宿区市谷山伏町,139.72855,35.7,消費者,岩船 陽菜,465.074703
391,新宿区,東京都新宿区市谷砂土原町二丁目,139.73602,35.69569,消費者,安嶋 七海,626.1227616
392,新宿区,東京都新宿区市谷砂土原町三丁目,139.73703,35.69671,消費者,椎木 彩花,963.5643656
393,新宿区,東京都新宿区市谷砂土原町一丁目,139.73623,35.69459,小規模事業所,阿藤 真,951.3443951
394,新宿区,東京都新宿区市谷左内町,139.73356,35.69488,消費者,池田 直美,492.3220716
395,新宿区,東京都新宿区市谷甲良町,139.72846,35.69901,大企業,新宅 皐,1266.675753
396,新宿区,東京都新宿区市谷加賀町二丁目,139.72914,35.69707,消費者,岩花 桐子,434.6264275
397,新宿区,東京都新宿区市谷加賀町一丁目,139.73139,35.69648,小規模事業所,大津 延,603.2865537
398,新宿区,東京都新宿区四谷二丁目,139.72497,35.68748,消費者,田牧 大翔,682.1449133
399,新宿区,東京都新宿区四谷四丁目,139.71713,35.68922,小規模事業所,梅野 朋美,603.4943205
400,新宿区,東京都新宿区四谷三丁目,139.72172,35.6882,大企業,藤曲 久美子,396.8897258
401,新宿区,東京都新宿区四谷一丁目,139.72862,35.6856,小規模事業所,大向 小百合,479.3182548
402,新宿区,東京都新宿区山吹町,139.7308,35.70822,消費者,芦塚 翼,785.5734285
403,新宿区,東京都新宿区三栄町,139.72579,35.68963,小規模事業所,桐沢 誠,723.9376971
404,新宿区,東京都新宿区坂町,139.72748,35.69073,消費者,掛水 誠,965.7917168
405,新宿区,東京都新宿区細工町,139.73336,35.69907,消費者,鷹巣 恵美,498.8862536
406,新宿区,東京都新宿区左門町,139.72134,35.68635,小規模事業所,蛭川 千代,1095.163186
407,新宿区,東京都新宿区高田馬場二丁目,139.70774,35.71298,消費者,櫻井 正男,1074.083537
408,新宿区,東京都新宿区高田馬場四丁目,139.69956,35.71055,消費者,折井 真一,550.241366
409,新宿区,東京都新宿区高田馬場三丁目,139.69859,35.71413,消費者,阿部 真美,452.2344129
410,新宿区,東京都新宿区高田馬場一丁目,139.70645,35.71057,大企業,福岡 延,896.0560982
411,新宿区,東京都新宿区荒木町,139.72392,35.69073,消費者,満永 昭夫,912.2486315
412,新宿区,東京都新宿区戸塚町一丁目,139.72131,35.70876,消費者,富島 昭夫,720.8479941
413,新宿区,東京都新宿区戸山二丁目,139.71323,35.70367,大企業,井藤 修,1041.431536
414,新宿区,東京都新宿区戸山三丁目,139.71297,35.70645,大企業,稲冨 結菜,396.2818509
415,新宿区,東京都新宿区戸山一丁目,139.71742,35.70293,大企業,竹石 大輔,771.9819457
416,新宿区,東京都新宿区原町二丁目,139.72356,35.70137,小規模事業所,苅込 蓮,396.7890354
417,新宿区,東京都新宿区原町三丁目,139.72262,35.70089,消費者,柳岡 法子,471.8812259
418,新宿区,東京都新宿区原町一丁目,139.72582,35.7006,消費者,宮原 輝,716.4019964
419,新宿区,東京都新宿区喜久井町,139.72237,35.7044,消費者,月本 葵,513.1457608
420,新宿区,東京都新宿区岩戸町,139.73765,35.70207,消費者,佐久間 大翔,403.3729504
421,新宿区,東京都新宿区改代町,139.73461,35.70755,大企業,芝池 誠,459.0060964
422,新宿区,東京都新宿区霞ヶ丘町,139.71709,35.67748,消費者,池尻 蓮,696.9860813
423,新宿区,東京都新宿区河田町,139.72008,35.69689,大企業,須藤 真,440.3389663
424,新宿区,東京都新宿区歌舞伎町二丁目,139.70372,35.69653,消費者,軽部 翔,363.7672006
425,新宿区,東京都新宿区歌舞伎町一丁目,139.70279,35.69465,消費者,東原 大翔,560.0279331
426,新宿区,東京都新宿区下落合二丁目,139.70269,35.71759,小規模事業所,和栗 明美,1271.068263
427,新宿区,東京都新宿区下落合四丁目,139.69697,35.71862,消費者,荒谷 陽子,672.551463
428,新宿区,東京都新宿区下落合三丁目,139.70215,35.72149,小規模事業所,猪崎 陽子,1164.63181
429,新宿区,東京都新宿区下落合一丁目,139.70111,35.71557,消費者,丸岡 翼,576.3665403
430,新宿区,東京都新宿区下宮比町,139.74395,35.70362,消費者,西垣内 蓮,1622.465582
431,新宿区,東京都新宿区横寺町,139.73595,35.70251,大企業,向畑 直子,532.7425573
432,新宿区,東京都新宿区榎町,139.72823,35.7062,消費者,細村 陸,608.4476338
433,新宿区,東京都新宿区愛住町,139.71971,35.68984,大企業,岩渕 美羽,1207.337167
434,渋谷区,東京都渋谷区鶯谷町,139.70156,35.65318,大企業,周藤 義雄,333.4596859
435,渋谷区,東京都渋谷区本町六丁目,139.67812,35.68185,大企業,高場 豊,834.5751791
436,渋谷区,東京都渋谷区本町二丁目,139.6821,35.68434,小規模事業所,片見 小百合,1109.587821
437,渋谷区,東京都渋谷区本町四丁目,139.67875,35.68605,大企業,柏 明美,835.5505919
438,渋谷区,東京都渋谷区本町三丁目,139.68251,35.68789,大企業,多賀 美優,1278.59992
439,渋谷区,東京都渋谷区本町五丁目,139.67681,35.68401,大企業,高林 小百合,999.192627
440,渋谷区,東京都渋谷区本町一丁目,139.68242,35.68064,消費者,土持 剛,764.9414818
441,渋谷区,東京都渋谷区富ヶ谷二丁目,139.68569,35.66465,消費者,常岡 翔太,871.1283456
442,渋谷区,東京都渋谷区富ヶ谷一丁目,139.68971,35.66717,消費者,重山 結菜,420.410477
443,渋谷区,東京都渋谷区鉢山町,139.69817,35.65145,大企業,竹添 勝,734.8362811
444,渋谷区,東京都渋谷区幡ヶ谷二丁目,139.67485,35.67773,大企業,吉岡 太陽,631.6559486
445,渋谷区,東京都渋谷区幡ヶ谷三丁目,139.67294,35.68024,大企業,大角 文子,378.600447
446,渋谷区,東京都渋谷区幡ヶ谷一丁目,139.67402,35.67489,大企業,吉津 颯太,364.5423121
447,渋谷区,東京都渋谷区南平台町,139.69653,35.65401,消費者,黒澤 翔,528.5459884
448,渋谷区,東京都渋谷区道玄坂二丁目,139.69687,35.65936,消費者,東郷 学,826.6349703
449,渋谷区,東京都渋谷区道玄坂一丁目,139.69785,35.65724,消費者,武藤 恵,549.7541685
450,渋谷区,東京都渋谷区東二丁目,139.70912,35.65328,小規模事業所,大郷 由美,1186.672849
451,渋谷区,東京都渋谷区東四丁目,139.71212,35.6556,大企業,掛布 禎子,515.6078741
452,渋谷区,東京都渋谷区東三丁目,139.71084,35.65058,大企業,栢木 正,327.1823776
453,渋谷区,東京都渋谷区東一丁目,139.70768,35.6548,消費者,奥畑 輝,376.3464561
454,渋谷区,東京都渋谷区大山町,139.67506,35.66887,大企業,鰐部 葵,321.0868331
455,渋谷区,東京都渋谷区代官山町,139.70392,35.65019,大企業,浅津 大地,1034.428655
456,渋谷区,東京都渋谷区代々木二丁目,139.69794,35.68564,消費者,小豆畑 直樹,485.7281453
457,渋谷区,東京都渋谷区代々木神園町,139.69724,35.67429,小規模事業所,相馬 真,666.09247
458,渋谷区,東京都渋谷区代々木四丁目,139.6905,35.6805,小規模事業所,後野 克己,416.3552512
459,渋谷区,東京都渋谷区代々木三丁目,139.69386,35.68339,消費者,竹之下 静香,708.4863395
460,渋谷区,東京都渋谷区代々木五丁目,139.68929,35.67382,消費者,吉水 直子,1248.883611
461,渋谷区,東京都渋谷区代々木一丁目,139.70069,35.68145,消費者,伊勢田 寛,642.3074913
462,渋谷区,東京都渋谷区千駄ヶ谷六丁目,139.70635,35.6843,消費者,水島 大翔,530.6502972
463,渋谷区,東京都渋谷区千駄ヶ谷二丁目,139.70976,35.67611,消費者,永嶋 陽子,585.0927982
464,渋谷区,東京都渋谷区千駄ヶ谷四丁目,139.70552,35.67977,大企業,山坂 重子,875.6518664
465,渋谷区,東京都渋谷区千駄ヶ谷三丁目,139.70494,35.67562,小規模事業所,高畠 武,473.8401404
466,渋谷区,東京都渋谷区千駄ヶ谷五丁目,139.70483,35.68299,消費者,坂中 正博,1101.061825
467,渋谷区,東京都渋谷区千駄ヶ谷一丁目,139.71072,35.67931,小規模事業所,猪上 郁,974.0440764
468,渋谷区,東京都渋谷区西原二丁目,139.67678,35.67349,消費者,坂本 涼,637.6481817
469,渋谷区,東京都渋谷区西原三丁目,139.67939,35.67065,消費者,加倉井 朋美,658.1960508
470,渋谷区,東京都渋谷区西原一丁目,139.68171,35.67548,小規模事業所,阿久津 大輝,1215.643012
471,渋谷区,東京都渋谷区神南二丁目,139.69735,35.66674,小規模事業所,坂庭 正博,946.7625618
472,渋谷区,東京都渋谷区神南一丁目,139.6999,35.66341,小規模事業所,永瀬 延,1272.202918
473,渋谷区,東京都渋谷区神泉町,139.69244,35.65639,消費者,川浪 麗華,1120.625259
474,渋谷区,東京都渋谷区神山町,139.69237,35.66406,小規模事業所,松倉 凛,661.7474588
475,渋谷区,東京都渋谷区神宮前六丁目,139.70299,35.66644,消費者,米須 哲也,710.9299499
476,渋谷区,東京都渋谷区神宮前二丁目,139.70985,35.67365,消費者,山脇 真美,1397.429693
477,渋谷区,東京都渋谷区神宮前四丁目,139.70848,35.66833,小規模事業所,長谷 拓也,828.0331702
478,渋谷区,東京都渋谷区神宮前三丁目,139.71042,35.6706,小規模事業所,東城 幸子,644.5360244
479,渋谷区,東京都渋谷区神宮前五丁目,139.70686,35.66472,大企業,黒河 麗華,841.4981954
480,渋谷区,東京都渋谷区神宮前一丁目,139.70517,35.6716,大企業,川杉 重子,875.4746012
481,渋谷区,東京都渋谷区上原二丁目,139.68185,35.66516,大企業,津野 延,926.330978
482,渋谷区,東京都渋谷区上原三丁目,139.67724,35.66594,小規模事業所,藤戸 恵美,1026.398719
483,渋谷区,東京都渋谷区上原一丁目,139.68357,35.66871,消費者,中路 雄大,936.2844508
484,渋谷区,東京都渋谷区松濤二丁目,139.68992,35.65971,小規模事業所,横畑 和子,719.8270272
485,渋谷区,東京都渋谷区松濤一丁目,139.69302,35.66107,消費者,滝沢 優香,606.8927211
486,渋谷区,東京都渋谷区初台二丁目,139.68552,35.67576,大企業,清野 正,630.9829482
487,渋谷区,東京都渋谷区初台一丁目,139.68579,35.6791,小規模事業所,廣田 千代子,551.0349845
488,渋谷区,東京都渋谷区渋谷二丁目,139.70536,35.65888,消費者,原田 皐,541.5676905
489,渋谷区,東京都渋谷区渋谷四丁目,139.7106,35.65974,消費者,則松 輝,521.0201382
490,渋谷区,東京都渋谷区渋谷三丁目,139.70513,35.65637,小規模事業所,大和田 匠,491.6044221
491,渋谷区,東京都渋谷区渋谷一丁目,139.70373,35.66089,消費者,井東 寛,906.4327174
492,渋谷区,東京都渋谷区笹塚二丁目,139.66661,35.67523,消費者,関谷 武,628.6111117
493,渋谷区,東京都渋谷区笹塚三丁目,139.66659,35.67716,消費者,野澤 寛,1096.932646
494,渋谷区,東京都渋谷区笹塚一丁目,139.66667,35.67267,大企業,可児 勝,724.2729614
495,渋谷区,東京都渋谷区桜丘町,139.7006,35.65527,消費者,笹淵 大輔,395.3878482
496,渋谷区,東京都渋谷区広尾二丁目,139.71557,35.65125,小規模事業所,栄田 涼,1021.102412
497,渋谷区,東京都渋谷区広尾四丁目,139.71924,35.65343,消費者,大部 美羽,1135.827633
498,渋谷区,東京都渋谷区広尾三丁目,139.7153,35.65445,大企業,西垣 豊,636.8161157
499,渋谷区,東京都渋谷区広尾五丁目,139.71956,35.64915,消費者,岸波 颯太,834.1237604
500,渋谷区,東京都渋谷区広尾一丁目,139.71349,35.64912,消費者,滝田 実,471.3621665
501,渋谷区,東京都渋谷区元代々木町,139.68554,35.67127,消費者,横内 正博,816.8414169
502,渋谷区,東京都渋谷区恵比寿二丁目,139.71949,35.64617,大企業,田久 愛美,327.1552699
503,渋谷区,東京都渋谷区恵比寿南二丁目,139.7084,35.64407,消費者,狐塚 大翔,694.1869391
504,渋谷区,東京都渋谷区恵比寿南三丁目,139.70553,35.64514,消費者,鷲尾 麗華,602.6582456
505,渋谷区,東京都渋谷区恵比寿南一丁目,139.70959,35.64489,消費者,溝下 真,826.467888
506,渋谷区,東京都渋谷区恵比寿西二丁目,139.70646,35.65038,大企業,藤沢 駿,1383.478179
507,渋谷区,東京都渋谷区恵比寿西一丁目,139.70663,35.64736,大企業,横町 翼,755.6031303
508,渋谷区,東京都渋谷区恵比寿四丁目,139.7125,35.64472,消費者,毛利 陽菜,1048.318741
509,渋谷区,東京都渋谷区恵比寿三丁目,139.71732,35.64322,消費者,谷上 愛子,467.5647005
510,渋谷区,東京都渋谷区恵比寿一丁目,139.71364,35.64704,大企業,峰野 翼,688.5187527
511,渋谷区,東京都渋谷区猿楽町,139.70239,35.65104,消費者,片桐 直美,984.556631
512,渋谷区,東京都渋谷区円山町,139.6946,35.65751,小規模事業所,高須賀 緑,583.6184891
513,渋谷区,東京都渋谷区宇田川町,139.69717,35.66163,大企業,佐伯 涼香,430.8658872
514,港区,東京都港区六本木六丁目,139.72993,35.65986,消費者,原園 美月,769.897681
515,港区,東京都港区六本木二丁目,139.73709,35.66697,大企業,長洲 美優,868.4872508
516,港区,東京都港区六本木七丁目,139.72686,35.66475,消費者,大澤 大和,1161.973955
517,港区,東京都港区六本木四丁目,139.73384,35.66549,大企業,五島 克己,625.8767455
518,港区,東京都港区六本木三丁目,139.73545,35.66398,大企業,小菅 禎子,1142.383474
519,港区,東京都港区六本木五丁目,139.73525,35.65836,消費者,下沢 翔太,795.1398145
520,港区,東京都港区六本木一丁目,139.74099,35.66508,大企業,野崎 哲也,500.7232916
521,港区,東京都港区麻布狸穴町,139.73951,35.65934,小規模事業所,鳴川 節子,1106.32074
522,港区,東京都港区麻布台二丁目,139.7411,35.65906,消費者,浜砂 重子,455.9084571
523,港区,東京都港区麻布台三丁目,139.73812,35.65986,消費者,早山 陽子,701.6271784
524,港区,東京都港区麻布台一丁目,139.74086,35.66178,消費者,鍵和田 翔,433.2475371
525,港区,東京都港区麻布十番二丁目,139.7356,35.65493,消費者,桐沢 駿,1125.216627
526,港区,東京都港区麻布十番四丁目,139.73737,35.65468,消費者,磯上 陽子,510.729844
527,港区,東京都港区麻布十番三丁目,139.73543,35.65301,消費者,壱岐 由美子,344.071395
528,港区,東京都港区麻布十番一丁目,139.73574,35.65615,小規模事業所,田幡 葵,630.3015878
529,港区,東京都港区麻布永坂町,139.73781,35.65831,消費者,藤波 三郎,504.1609668
530,港区,東京都港区北青山二丁目,139.71854,35.67221,消費者,上畠 和子,970.3204893
531,港区,東京都港区北青山三丁目,139.71235,35.6662,大企業,久世 螢,752.0049354
532,港区,東京都港区北青山一丁目,139.72086,35.67501,消費者,丹藤 剛,782.9176027
533,港区,東京都港区浜松町二丁目,139.75553,35.65407,大企業,江野 美羽,704.8329647
534,港区,東京都港区浜松町一丁目,139.75667,35.65785,小規模事業所,喜多見 翔,1032.502682
535,港区,東京都港区白金六丁目,139.72344,35.64272,消費者,蔵本 学,812.262752
536,港区,東京都港区白金二丁目,139.73012,35.64153,消費者,高木 武,393.238083
537,港区,東京都港区白金台二丁目,139.72962,35.63447,消費者,鵜飼 学,992.023609
538,港区,東京都港区白金台四丁目,139.72412,35.63913,大企業,桃木 優太,1113.685341
539,港区,東京都港区白金台三丁目,139.72613,35.63632,大企業,恒石 朋美,532.2057894
540,港区,東京都港区白金台五丁目,139.72006,35.63807,小規模事業所,板橋 美優,682.0790932
541,港区,東京都港区白金台一丁目,139.73038,35.63824,小規模事業所,荒堀 拓也,837.7823594
542,港区,東京都港区白金四丁目,139.72741,35.64187,消費者,貝原 翔,440.0559469
543,港区,東京都港区白金三丁目,139.72988,35.64544,消費者,平村 正男,664.851512
544,港区,東京都港区白金五丁目,139.72674,35.64533,消費者,本園 清,431.0986108
545,港区,東京都港区白金一丁目,139.73241,35.64559,消費者,新実 禎子,1102.037118
546,港区,東京都港区南麻布二丁目,139.73445,35.6493,消費者,田所 七海,1106.067917
547,港区,東京都港区南麻布四丁目,139.72587,35.64897,大企業,中桐 勝,1109.0325
548,港区,東京都港区南麻布三丁目,139.7302,35.64913,大企業,小坂 優香,1352.423647
549,港区,東京都港区南麻布五丁目,139.72534,35.65267,消費者,加賀美 克己,834.6554205
550,港区,東京都港区南麻布一丁目,139.73233,35.65108,消費者,大和田 陽菜,957.2532928
551,港区,東京都港区南青山六丁目,139.71594,35.66054,消費者,神田 丈夫,459.8288969
552,港区,東京都港区南青山二丁目,139.72275,35.66676,消費者,鷹見 進,884.5840097
553,港区,東京都港区南青山七丁目,139.71687,35.65795,小規模事業所,葛岡 海斗,1094.535034
554,港区,東京都港区南青山四丁目,139.71884,35.66488,大企業,野林 法子,654.6776133
555,港区,東京都港区南青山三丁目,139.71546,35.66611,消費者,金子 彩花,690.3191688
556,港区,東京都港区南青山五丁目,139.71384,35.66293,大企業,小笹 克己,1283.579686
557,港区,東京都港区南青山一丁目,139.72556,35.66873,小規模事業所,田岡 正博,1125.950688
558,港区,東京都港区東麻布二丁目,139.74107,35.65659,大企業,谷島 義雄,594.5923294
559,港区,東京都港区東麻布三丁目,139.73822,35.65704,消費者,出浦 霞,596.2236434
560,港区,東京都港区東麻布一丁目,139.74343,35.65648,消費者,星屋 海斗,667.9151751
561,港区,東京都港区東新橋二丁目,139.75753,35.66121,大企業,朝倉 大翔,435.9867608
562,港区,東京都港区東新橋一丁目,139.76127,35.66268,消費者,富士原 和也,981.5287099
563,港区,東京都港区台場二丁目,139.77664,35.62799,消費者,波多野 舞,322.2990417
564,港区,東京都港区台場一丁目,139.77301,35.62774,消費者,大鳥 三郎,435.632459
565,港区,東京都港区赤坂六丁目,139.73555,35.67005,大企業,金石 美羽,1107.564902
566,港区,東京都港区赤坂八丁目,139.72755,35.67203,小規模事業所,漆谷 翔太,851.992096
567,港区,東京都港区赤坂二丁目,139.73916,35.67113,大企業,山森 舞,763.7370175
568,港区,東京都港区赤坂七丁目,139.73065,35.67152,消費者,立山 雄大,1034.067457
569,港区,東京都港区赤坂四丁目,139.7331,35.67347,消費者,更谷 翼,323.3592854
570,港区,東京都港区赤坂三丁目,139.73774,35.67434,大企業,金児 皐,826.8754329
571,港区,東京都港区赤坂五丁目,139.735,35.67236,大企業,牧岡 実,1525.679234
572,港区,東京都港区赤坂九丁目,139.7308,35.66705,消費者,日野 拓也,587.7741769
573,港区,東京都港区赤坂一丁目,139.74245,35.66924,小規模事業所,木和田 真,1034.99115
574,港区,東京都港区西麻布二丁目,139.72025,35.66117,消費者,須磨 慶子,870.2318562
575,港区,東京都港区西麻布四丁目,139.72238,35.65879,消費者,佐宗 翼,755.8487496
576,港区,東京都港区西麻布三丁目,139.7259,35.65868,大企業,小野田 太陽,234.9766793
577,港区,東京都港区西麻布一丁目,139.72447,35.66087,消費者,丸川 優香,1039.857993
578,港区,東京都港区西新橋二丁目,139.75187,35.667,大企業,霜田 匠,637.9068224
579,港区,東京都港区西新橋三丁目,139.751,35.66374,消費者,伊原 誠,550.3318242
580,港区,東京都港区西新橋一丁目,139.75308,35.66812,大企業,古茂田 正,594.4935789
581,港区,東京都港区新橋六丁目,139.75425,35.66172,大企業,向田 太陽,623.0322963
582,港区,東京都港区新橋二丁目,139.75604,35.66745,消費者,松藤 桜,1113.891883
583,港区,東京都港区新橋四丁目,139.7558,35.6645,消費者,岸部 葵,906.1825853
584,港区,東京都港区新橋三丁目,139.75507,35.66585,大企業,黒島 和子,1001.560632
585,港区,東京都港区新橋五丁目,139.75379,35.66362,消費者,橋口 優太,343.8295947
586,港区,東京都港区新橋一丁目,139.75716,35.6684,消費者,寒河江 茂,327.3218844
587,港区,東京都港区芝二丁目,139.75189,35.65133,大企業,加賀 美月,887.4326959
588,港区,東京都港区芝大門二丁目,139.75366,35.65497,消費者,畔田 学,1097.308833
589,港区,東京都港区芝大門一丁目,139.75402,35.65882,消費者,河江 昭夫,1114.168889
590,港区,東京都港区芝四丁目,139.75042,35.64915,小規模事業所,齋木 陽菜,921.6144053
591,港区,東京都港区芝三丁目,139.74743,35.65151,大企業,矢幡 翔太,469.4669623
592,港区,東京都港区芝公園二丁目,139.75177,35.65619,大企業,荒畑 大翔,839.4574102
593,港区,東京都港区芝公園四丁目,139.74846,35.65621,消費者,本永 夏希,13.77253191
594,港区,東京都港区芝公園三丁目,139.74726,35.66046,大企業,三宅 荘一,567.8222988
595,港区,東京都港区芝公園一丁目,139.75172,35.65783,大企業,大垣 四郎,769.3307846
596,港区,東京都港区芝五丁目,139.74717,35.64962,消費者,矢田 一樹,763.0262805
597,港区,東京都港区芝浦二丁目,139.75305,35.64421,消費者,稲本 凛,636.7811748
598,港区,東京都港区芝浦四丁目,139.74616,35.64008,小規模事業所,宗村 拓海,644.2341966
599,港区,東京都港区芝浦三丁目,139.74824,35.64299,大企業,浅井 夏希,367.0031135
600,港区,東京都港区芝浦一丁目,139.75662,35.64816,小規模事業所,鹿間 勇,22.10916163
601,港区,東京都港区芝一丁目,139.7552,35.65241,小規模事業所,堀籠 慶子,633.1487953
602,港区,東京都港区三田二丁目,139.73893,35.64875,小規模事業所,荒川 剛,721.6976092
603,港区,東京都港区三田四丁目,139.74005,35.64415,小規模事業所,三木 哲也,442.9361395
604,港区,東京都港区三田三丁目,139.74251,35.64341,小規模事業所,吉村 美咲,414.0528286
605,港区,東京都港区三田五丁目,139.73781,35.64707,消費者,小田部 輝,394.6635927
606,港区,東京都港区三田一丁目,139.74096,35.65367,消費者,屋代 美羽,1065.57812
607,港区,東京都港区高輪二丁目,139.73702,35.63667,消費者,我孫子 大輝,939.2047693
608,港区,東京都港区高輪四丁目,139.73399,35.62794,小規模事業所,真柄 凛,422.3951173
609,港区,東京都港区高輪三丁目,139.73386,35.63092,消費者,宇都 彩花,700.5756824
610,港区,東京都港区高輪一丁目,139.73531,35.64026,大企業,川波 結菜,234.7251077
611,港区,東京都港区港南二丁目,139.74267,35.62739,消費者,徳村 実,571.8202485
612,港区,東京都港区港南四丁目,139.74789,35.62582,大企業,柳田 太陽,820.1327507
613,港区,東京都港区港南三丁目,139.75161,35.63273,大企業,井ノ口 誠,765.986629
614,港区,東京都港区港南五丁目,139.75697,35.628,消費者,星島 優月,455.3263746
615,港区,東京都港区港南一丁目,139.74387,35.63322,消費者,柚木 皐,835.3064406
616,港区,東京都港区虎ノ門二丁目,139.74597,35.66834,消費者,川田 大樹,423.2395127
617,港区,東京都港区虎ノ門四丁目,139.7441,35.66529,消費者,額賀 四郎,816.0381474
618,港区,東京都港区虎ノ門三丁目,139.7463,35.66672,消費者,小堺 太陽,448.723111
619,港区,東京都港区虎ノ門五丁目,139.74311,35.66277,小規模事業所,梅﨑 愛子,564.1547418
620,港区,東京都港区虎ノ門一丁目,139.75035,35.66898,小規模事業所,久下 勇,579.0590743
621,港区,東京都港区元麻布二丁目,139.72895,35.65462,消費者,山仲 海斗,668.9988539
622,港区,東京都港区元麻布三丁目,139.72895,35.65666,消費者,中塩 葵,409.1637579
623,港区,東京都港区元麻布一丁目,139.73229,35.65317,消費者,最上 大翔,446.2639966
624,港区,東京都港区元赤坂二丁目,139.72822,35.67691,消費者,綿引 寛,949.3953956
625,港区,東京都港区元赤坂一丁目,139.73372,35.67736,大企業,西坂 大和,1165.854709
626,港区,東京都港区海岸二丁目,139.75976,35.64775,消費者,梨木 由美,632.8817695
627,港区,東京都港区海岸三丁目,139.75934,35.64022,大企業,越田 正,758.7509878
628,港区,東京都港区海岸一丁目,139.76247,35.65319,消費者,下方 智子,423.2553594
629,港区,東京都港区愛宕二丁目,139.74842,35.66319,小規模事業所,杉町 進,1055.738222
